[{"content":null,"events":[],"geometry":{"type":"Point","coordinates":[-120.53358,44.51481]},"id":0,"live":[],"media":[],"name":"Twin Pillar North","news_and_alerts":[],"official_maps":[],"outerspatial_url":null,"related_features":[],"related_urls":[],"short_name":null,"steward_url":null,"subarea_id":null,"tags":[],"type":"Trailhead"},{"content":null,"events":[],"geometry":{"type":"Point","coordinates":[-120.386728,44.499331]},"id":2,"live":[],"media":[],"name":"Ochoco Divide","news_and_alerts":[],"official_maps":[],"outerspatial_url":null,"related_features":[],"related_urls":[],"short_name":null,"steward_url":null,"subarea_id":null,"tags":[],"type":"Campground"},{"content":null,"events":[],"geometry":{"type":"Point","coordinates":[-120.391303,44.493832]},"id":4,"live":[],"media":[],"name":"Ochoco Divide Snopark","news_and_alerts":[],"official_maps":[],"outerspatial_url":null,"related_features":[],"related_urls":[],"short_name":null,"steward_url":null,"subarea_id":null,"tags":[],"type":"Snowpark"},{"content":null,"events":[],"geometry":{"type":"Point","coordinates":[-120.397144,44.486533]},"id":6,"live":[],"media":[],"name":"Bandit Spring Snopark","news_and_alerts":[],"official_maps":[],"outerspatial_url":null,"related_features":[],"related_urls":[],"short_name":null,"steward_url":null,"subarea_id":null,"tags":[],"type":"Trailhead"},{"content":null,"events":[],"geometry":{"type":"Point","coordinates":[-121.139375,44.492004]},"id":8,"live":[],"media":[],"name":"Haystack Lake","news_and_alerts":[],"official_maps":[],"outerspatial_url":null,"related_features":[],"related_urls":[],"short_name":null,"steward_url":null,"subarea_id":null,"tags":[],"type":"Campground"},{"content":null,"events":[],"geometry":{"type":"Point","coordinates":[-120.404126,44.480359]},"id":10,"live":[],"media":[],"name":"Marks Creek Snopark (sled Hill)","news_and_alerts":[],"official_maps":[],"outerspatial_url":null,"related_features":[],"related_urls":[],"short_name":null,"steward_url":null,"subarea_id":null,"tags":[],"type":"Snowpark"},{"content":null,"events":[],"geometry":{"type":"Point","coordinates":[-120.628735,44.468144]},"id":13,"live":[],"media":[],"name":"N. Green Mt. Trailhead","news_and_alerts":[],"official_maps":[],"outerspatial_url":null,"related_features":[],"related_urls":[],"short_name":null,"steward_url":null,"subarea_id":null,"tags":[],"type":"Trailhead"},{"content":null,"events":[],"geometry":{"type":"Point","coordinates":[-120.577291,44.440457]},"id":15,"live":[],"media":[],"name":"Wildcat","news_and_alerts":[],"official_maps":[],"outerspatial_url":null,"related_features":[],"related_urls":[],"short_name":null,"steward_url":null,"subarea_id":null,"tags":[],"type":"Campground"},{"content":null,"events":[],"geometry":{"type":"Point","coordinates":[-120.580303,44.439404]},"id":17,"live":[],"media":[],"name":"Twin Pillar South","news_and_alerts":[],"official_maps":[],"outerspatial_url":null,"related_features":[],"related_urls":[],"short_name":null,"steward_url":null,"subarea_id":null,"tags":[],"type":"Trailhead"},{"content":null,"events":[],"geometry":{"type":"Point","coordinates":[-120.144187,44.424781]},"id":19,"live":[],"media":[],"name":"Scotts Camp","news_and_alerts":[],"official_maps":[],"outerspatial_url":null,"related_features":[],"related_urls":[],"short_name":null,"steward_url":null,"subarea_id":null,"tags":[],"type":"Campground"},{"content":null,"events":[],"geometry":{"type":"Point","coordinates":[-120.543617,44.423537]},"id":21,"live":[],"media":[],"name":"White Rock","news_and_alerts":[],"official_maps":[],"outerspatial_url":null,"related_features":[],"related_urls":[],"short_name":null,"steward_url":null,"subarea_id":null,"tags":[],"type":"Campground"},{"content":null,"events":[],"geometry":{"type":"Point","coordinates":[-120.670407,44.420977]},"id":23,"live":[],"media":[],"name":"Dry Creek Horse Camp","news_and_alerts":[],"official_maps":[],"outerspatial_url":null,"related_features":[],"related_urls":[],"short_name":null,"steward_url":null,"subarea_id":null,"tags":[],"type":"Horse Camp"},{"content":null,"events":[],"geometry":{"type":"Point","coordinates":[-119.855073,44.388894]},"id":25,"live":[],"media":[],"name":"Cottonwood","news_and_alerts":[],"official_maps":[],"outerspatial_url":null,"related_features":[],"related_urls":[],"short_name":null,"steward_url":null,"subarea_id":null,"tags":[],"type":"Campground"},{"content":null,"events":[],"geometry":{"type":"Point","coordinates":[-120.422944,44.395637]},"id":27,"live":[],"media":[],"name":"Lookout Mt. Trailhead","news_and_alerts":[],"official_maps":[],"outerspatial_url":null,"related_features":[],"related_urls":[],"short_name":null,"steward_url":null,"subarea_id":null,"tags":[],"type":"Trailhead"},{"content":null,"events":[],"geometry":{"type":"Point","coordinates":[-120.623948,44.394758]},"id":29,"live":[],"media":[],"name":"Steins Pillar","news_and_alerts":[],"official_maps":[],"outerspatial_url":null,"related_features":[],"related_urls":[],"short_name":null,"steward_url":null,"subarea_id":null,"tags":[],"type":"Trailhead"},{"content":null,"events":[],"geometry":{"type":"Point","coordinates":[-119.87062,44.367773]},"id":31,"live":[],"media":[],"name":"Cottonwood Pit","news_and_alerts":[],"official_maps":[],"outerspatial_url":null,"related_features":[],"related_urls":[],"short_name":null,"steward_url":null,"subarea_id":null,"tags":[],"type":"Campground"},{"content":null,"events":[],"geometry":{"type":"Point","coordinates":[-119.992635,44.332414]},"id":33,"live":[],"media":[],"name":"Big Spring","news_and_alerts":[],"official_maps":[],"outerspatial_url":null,"related_features":[],"related_urls":[],"short_name":null,"steward_url":null,"subarea_id":null,"tags":[],"type":"Campground"},{"content":null,"events":[],"geometry":{"type":"Point","coordinates":[-119.663362,44.302718]},"id":35,"live":[],"media":[],"name":"Mud Spring","news_and_alerts":[],"official_maps":[],"outerspatial_url":null,"related_features":[],"related_urls":[],"short_name":null,"steward_url":null,"subarea_id":null,"tags":[],"type":"Horse Camp"},{"content":null,"events":[],"geometry":{"type":"Point","coordinates":[-119.826285,44.253078]},"id":37,"live":[],"media":[],"name":"Wolf Creek","news_and_alerts":[],"official_maps":[],"outerspatial_url":null,"related_features":[],"related_urls":[],"short_name":null,"steward_url":null,"subarea_id":null,"tags":[],"type":"Campground"},{"content":null,"events":[],"geometry":{"type":"Point","coordinates":[-119.82682,44.249753]},"id":39,"live":[],"media":[],"name":"Wolf Creek Industrial","news_and_alerts":[],"official_maps":[],"outerspatial_url":null,"related_features":[],"related_urls":[],"short_name":null,"steward_url":null,"subarea_id":null,"tags":[],"type":"Campground"},{"content":null,"events":[],"geometry":{"type":"Point","coordinates":[-119.805637,44.232197]},"id":41,"live":[],"media":[],"name":"Sugar Creek","news_and_alerts":[],"official_maps":[],"outerspatial_url":null,"related_features":[],"related_urls":[],"short_name":null,"steward_url":null,"subarea_id":null,"tags":[],"type":"Campground"},{"content":null,"events":[],"geometry":{"type":"Point","coordinates":[-120.319852,44.079443]},"id":43,"live":[],"media":[],"name":"Elkhorn","news_and_alerts":[],"official_maps":[],"outerspatial_url":null,"related_features":[],"related_urls":[],"short_name":null,"steward_url":null,"subarea_id":null,"tags":[],"type":"Campground"},{"content":null,"events":[],"geometry":{"type":"Point","coordinates":[-120.320508,44.028622]},"id":45,"live":[],"media":[],"name":"Double Cabin","news_and_alerts":[],"official_maps":[],"outerspatial_url":null,"related_features":[],"related_urls":[],"short_name":null,"steward_url":null,"subarea_id":null,"tags":[],"type":"Campground"},{"content":null,"events":[],"geometry":{"type":"Point","coordinates":[-121.143599,44.431826]},"id":47,"live":[],"media":[],"name":"Henderson Flat","news_and_alerts":[],"official_maps":[],"outerspatial_url":null,"related_features":[],"related_urls":[],"short_name":null,"steward_url":null,"subarea_id":null,"tags":[],"type":"Trailhead"},{"content":null,"events":[],"geometry":{"type":"Point","coordinates":[-122.031194,43.597202]},"id":49,"live":[],"media":[],"name":"Willamette Pass Pct","news_and_alerts":[],"official_maps":[],"outerspatial_url":null,"related_features":[],"related_urls":[],"short_name":null,"steward_url":null,"subarea_id":null,"tags":[],"type":"Trailhead"},{"content":null,"events":[],"geometry":{"type":"Point","coordinates":[-121.853144,43.588394]},"id":51,"live":[],"media":[],"name":"East Davis Lake","news_and_alerts":[],"official_maps":[],"outerspatial_url":null,"related_features":[],"related_urls":[],"short_name":null,"steward_url":null,"subarea_id":null,"tags":[],"type":"Campground"},{"content":null,"events":[],"geometry":{"type":"Point","coordinates":[-122.009987,43.585986]},"id":53,"live":[],"media":[],"name":"Princess Creek","news_and_alerts":[],"official_maps":[],"outerspatial_url":null,"related_features":[],"related_urls":[],"short_name":null,"steward_url":null,"subarea_id":null,"tags":[],"type":"Campground"},{"content":null,"events":[],"geometry":{"type":"Point","coordinates":[-122.045573,43.583916]},"id":55,"live":[],"media":[],"name":"Trapper Creek","news_and_alerts":[],"official_maps":[],"outerspatial_url":null,"related_features":[],"related_urls":[],"short_name":null,"steward_url":null,"subarea_id":null,"tags":[],"type":"Campground"},{"content":null,"events":[],"geometry":{"type":"Point","coordinates":[-122.021713,43.572014]},"id":59,"live":[],"media":[],"name":"Pebble Bay","news_and_alerts":[],"official_maps":[],"outerspatial_url":null,"related_features":[],"related_urls":[],"short_name":null,"steward_url":null,"subarea_id":null,"tags":[],"type":"Campground"},{"content":null,"events":[],"geometry":{"type":"Point","coordinates":[-121.950633,43.527731]},"id":64,"live":[],"media":[],"name":"Junction Snopark","news_and_alerts":[],"official_maps":[],"outerspatial_url":null,"related_features":[],"related_urls":[],"short_name":null,"steward_url":null,"subarea_id":null,"tags":[],"type":"Snowpark"},{"content":null,"events":[],"geometry":{"type":"Point","coordinates":[-121.976502,43.499247]},"id":66,"live":[],"media":[],"name":"Crescent Lake","news_and_alerts":[],"official_maps":[],"outerspatial_url":null,"related_features":[],"related_urls":[],"short_name":null,"steward_url":null,"subarea_id":null,"tags":[],"type":"Campground"},{"content":null,"events":[],"geometry":{"type":"Point","coordinates":[-121.968672,43.499937]},"id":69,"live":[],"media":[],"name":"Simax Bay Picnic Area","news_and_alerts":[],"official_maps":[],"outerspatial_url":null,"related_features":[],"related_urls":[],"short_name":null,"steward_url":null,"subarea_id":null,"tags":[],"type":"Picnic Area"},{"content":null,"events":[],"geometry":{"type":"Point","coordinates":[-122.033074,43.474487]},"id":74,"live":[],"media":[],"name":"Whitefish Creek Trailhead","news_and_alerts":[],"official_maps":[],"outerspatial_url":null,"related_features":[],"related_urls":[],"short_name":null,"steward_url":null,"subarea_id":null,"tags":[],"type":"Trailhead"},{"content":null,"events":[],"geometry":{"type":"Point","coordinates":[-122.02999,43.472881]},"id":76,"live":[],"media":[],"name":"Tranquil Cove","news_and_alerts":[],"official_maps":[],"outerspatial_url":null,"related_features":[],"related_urls":[],"short_name":null,"steward_url":null,"subarea_id":null,"tags":[],"type":"Picnic Area"},{"content":null,"events":[],"geometry":{"type":"Point","coordinates":[-122.020261,43.460638]},"id":80,"live":[],"media":[],"name":"Spring","news_and_alerts":[],"official_maps":[],"outerspatial_url":null,"related_features":[],"related_urls":[],"short_name":null,"steward_url":null,"subarea_id":null,"tags":[],"type":"Campground"},{"content":null,"events":[],"geometry":{"type":"Point","coordinates":[-122.133185,43.46226]},"id":83,"live":[],"media":[],"name":"Summit Lake","news_and_alerts":[],"official_maps":[],"outerspatial_url":null,"related_features":[],"related_urls":[],"short_name":null,"steward_url":null,"subarea_id":null,"tags":[],"type":"Campground"},{"content":null,"events":[],"geometry":{"type":"Point","coordinates":[-122.026092,43.459719]},"id":85,"live":[],"media":[],"name":"Windy/oldenberg Lakes","news_and_alerts":[],"official_maps":[],"outerspatial_url":null,"related_features":[],"related_urls":[],"short_name":null,"steward_url":null,"subarea_id":null,"tags":[],"type":"Trailhead"},{"content":null,"events":[],"geometry":{"type":"Point","coordinates":[-121.941063,43.395014]},"id":87,"live":[],"media":[],"name":"Big Marsh Trailhead","news_and_alerts":[],"official_maps":[],"outerspatial_url":null,"related_features":[],"related_urls":[],"short_name":null,"steward_url":null,"subarea_id":null,"tags":[],"type":"Trailhead"},{"content":null,"events":[],"geometry":{"type":"Point","coordinates":[-121.782549,44.015977]},"id":89,"live":[],"media":[],"name":"Sisters Mirror Lake","news_and_alerts":[],"official_maps":[],"outerspatial_url":null,"related_features":[],"related_urls":[],"short_name":null,"steward_url":null,"subarea_id":null,"tags":[],"type":"Trailhead"},{"content":null,"events":[],"geometry":{"type":"Point","coordinates":[-121.699354,44.014401]},"id":91,"live":[],"media":[],"name":"Metolius Windigo","news_and_alerts":[],"official_maps":[],"outerspatial_url":null,"related_features":[],"related_urls":[],"short_name":null,"steward_url":null,"subarea_id":null,"tags":[],"type":"Trailhead"},{"content":null,"events":[],"geometry":{"type":"Point","coordinates":[-121.781125,43.907555]},"id":94,"live":[],"media":[],"name":"Lucky Lake","news_and_alerts":[],"official_maps":[],"outerspatial_url":null,"related_features":[],"related_urls":[],"short_name":null,"steward_url":null,"subarea_id":null,"tags":[],"type":"Trailhead"},{"content":null,"events":[],"geometry":{"type":"Point","coordinates":[-121.805525,43.963545]},"id":96,"live":[],"media":[],"name":"Beach","news_and_alerts":[],"official_maps":[],"outerspatial_url":null,"related_features":[],"related_urls":[],"short_name":null,"steward_url":null,"subarea_id":null,"tags":[],"type":"Picnic Area"},{"content":null,"events":[],"geometry":{"type":"Point","coordinates":[-121.833318,43.840011]},"id":101,"live":[],"media":[],"name":"Winopee Lake","news_and_alerts":[],"official_maps":[],"outerspatial_url":null,"related_features":[],"related_urls":[],"short_name":null,"steward_url":null,"subarea_id":null,"tags":[],"type":"Trailhead"},{"content":null,"events":[],"geometry":{"type":"Point","coordinates":[-121.906015,43.72922]},"id":104,"live":[],"media":[],"name":"Johnny Lake","news_and_alerts":[],"official_maps":[],"outerspatial_url":null,"related_features":[],"related_urls":[],"short_name":null,"steward_url":null,"subarea_id":null,"tags":[],"type":"Trailhead"},{"content":null,"events":[],"geometry":{"type":"Point","coordinates":[-121.889628,43.840443]},"id":111,"live":[],"media":[],"name":"West Cultus","news_and_alerts":[],"official_maps":[],"outerspatial_url":null,"related_features":[],"related_urls":[],"short_name":null,"steward_url":null,"subarea_id":null,"tags":[],"type":"Campground"},{"content":null,"events":[],"geometry":{"type":"Point","coordinates":[-121.962243,43.808542]},"id":113,"live":[],"media":[],"name":"Irish And Taylor","news_and_alerts":[],"official_maps":[],"outerspatial_url":null,"related_features":[],"related_urls":[],"short_name":null,"steward_url":null,"subarea_id":null,"tags":[],"type":"Campground"},{"content":null,"events":[],"geometry":{"type":"Point","coordinates":[-121.515702,44.031384]},"id":123,"live":[],"media":[],"name":"Skyliner Snowpark","news_and_alerts":[],"official_maps":[],"outerspatial_url":null,"related_features":[],"related_urls":[],"short_name":null,"steward_url":null,"subarea_id":null,"tags":[],"type":"Snowpark"},{"content":null,"events":[],"geometry":{"type":"Point","coordinates":[-121.832891,43.831147]},"id":125,"live":[],"media":[],"name":"Cultus Lake Picnic","news_and_alerts":[],"official_maps":[],"outerspatial_url":null,"related_features":[],"related_urls":[],"short_name":null,"steward_url":null,"subarea_id":null,"tags":[],"type":"Picnic Area"},{"content":null,"events":[],"geometry":{"type":"Point","coordinates":[-121.934198,43.804885]},"id":132,"live":[],"media":[],"name":"Many Lakes","news_and_alerts":[],"official_maps":[],"outerspatial_url":null,"related_features":[],"related_urls":[],"short_name":null,"steward_url":null,"subarea_id":null,"tags":[],"type":"Trailhead"},{"content":null,"events":[],"geometry":{"type":"Point","coordinates":[-121.411514,43.936225]},"id":134,"live":[],"media":[],"name":"Benham West","news_and_alerts":[],"official_maps":[],"outerspatial_url":null,"related_features":[],"related_urls":[],"short_name":null,"steward_url":null,"subarea_id":null,"tags":[],"type":"Trailhead"},{"content":null,"events":[],"geometry":{"type":"Point","coordinates":[-121.726607,44.024369]},"id":136,"live":[],"media":[],"name":"Sparks Lake","news_and_alerts":[],"official_maps":[],"outerspatial_url":null,"related_features":[],"related_urls":[],"short_name":null,"steward_url":null,"subarea_id":null,"tags":[],"type":"Trailhead"},{"content":null,"events":[],"geometry":{"type":"Point","coordinates":[-121.773581,43.901253]},"id":142,"live":[],"media":[],"name":"Blue Lagoon","news_and_alerts":[],"official_maps":[],"outerspatial_url":null,"related_features":[],"related_urls":[],"short_name":null,"steward_url":null,"subarea_id":null,"tags":[],"type":"Trailhead"},{"content":null,"events":[],"geometry":{"type":"Point","coordinates":[-121.654582,44.048654]},"id":144,"live":[],"media":[],"name":"370/380 Junction Th","news_and_alerts":[],"official_maps":[],"outerspatial_url":null,"related_features":[],"related_urls":[],"short_name":null,"steward_url":null,"subarea_id":null,"tags":[],"type":"Trailhead"},{"content":null,"events":[],"geometry":{"type":"Point","coordinates":[-121.051628,43.768558]},"id":148,"live":[],"media":[],"name":"Camp I I (ohv Trailhead)","news_and_alerts":[],"official_maps":[],"outerspatial_url":null,"related_features":[],"related_urls":[],"short_name":null,"steward_url":null,"subarea_id":null,"tags":[],"type":"Trailhead"},{"content":null,"events":[],"geometry":{"type":"Point","coordinates":[-120.997665,43.779095]},"id":150,"live":[],"media":[],"name":"Rd 2510 (ohv Trailhead)","news_and_alerts":[],"official_maps":[],"outerspatial_url":null,"related_features":[],"related_urls":[],"short_name":null,"steward_url":null,"subarea_id":null,"tags":[],"type":"Trailhead"},{"content":null,"events":[],"geometry":{"type":"Point","coordinates":[-121.215409,43.85377]},"id":153,"live":[],"media":[],"name":"Swamp Wells","news_and_alerts":[],"official_maps":[],"outerspatial_url":null,"related_features":[],"related_urls":[],"short_name":null,"steward_url":null,"subarea_id":null,"tags":[],"type":"Horse Camp"},{"content":null,"events":[],"geometry":{"type":"Point","coordinates":[-121.740798,44.013664]},"id":159,"live":[],"media":[],"name":"Ray Atkeson","news_and_alerts":[],"official_maps":[],"outerspatial_url":null,"related_features":[],"related_urls":[],"short_name":null,"steward_url":null,"subarea_id":null,"tags":[],"type":"Trailhead"},{"content":null,"events":[],"geometry":{"type":"Point","coordinates":[-121.806599,43.979245]},"id":161,"live":[],"media":[],"name":"Crater Ditch","news_and_alerts":[],"official_maps":[],"outerspatial_url":null,"related_features":[],"related_urls":[],"short_name":null,"steward_url":null,"subarea_id":null,"tags":[],"type":"Trailhead"},{"content":null,"events":[],"geometry":{"type":"Point","coordinates":[-121.084066,43.605903]},"id":170,"live":[],"media":[],"name":"South Lava (ohv Trailhead)","news_and_alerts":[],"official_maps":[],"outerspatial_url":null,"related_features":[],"related_urls":[],"short_name":null,"steward_url":null,"subarea_id":null,"tags":[],"type":"Trailhead"},{"content":null,"events":[],"geometry":{"type":"Point","coordinates":[-121.245586,43.708959]},"id":174,"live":[],"media":[],"name":"Little Crater","news_and_alerts":[],"official_maps":[],"outerspatial_url":null,"related_features":[],"related_urls":[],"short_name":null,"steward_url":null,"subarea_id":null,"tags":[],"type":"Picnic Area"},{"content":null,"events":[],"geometry":{"type":"Point","coordinates":[-121.217454,43.853329]},"id":181,"live":[],"media":[],"name":"Swamp Wells","news_and_alerts":[],"official_maps":[],"outerspatial_url":null,"related_features":[],"related_urls":[],"short_name":null,"steward_url":null,"subarea_id":null,"tags":[],"type":"Trailhead"},{"content":null,"events":[],"geometry":{"type":"Point","coordinates":[-121.253896,43.701204]},"id":183,"live":[],"media":[],"name":"Chief Paulina","news_and_alerts":[],"official_maps":[],"outerspatial_url":null,"related_features":[],"related_urls":[],"short_name":null,"steward_url":null,"subarea_id":null,"tags":[],"type":"Trailhead"},{"content":null,"events":[],"geometry":{"type":"Point","coordinates":[-121.235843,43.706266]},"id":185,"live":[],"media":[],"name":"Big Obsidian Flow Th","news_and_alerts":[],"official_maps":[],"outerspatial_url":null,"related_features":[],"related_urls":[],"short_name":null,"steward_url":null,"subarea_id":null,"tags":[],"type":"Trailhead"},{"content":null,"events":[],"geometry":{"type":"Point","coordinates":[-121.276947,43.712394]},"id":187,"live":[],"media":[],"name":"Paulina Lake","news_and_alerts":[],"official_maps":[],"outerspatial_url":null,"related_features":[],"related_urls":[],"short_name":null,"steward_url":null,"subarea_id":null,"tags":[],"type":"Picnic Area"},{"content":null,"events":[],"geometry":{"type":"Point","coordinates":[-121.234078,43.977633]},"id":189,"live":[],"media":[],"name":"Horse Butte","news_and_alerts":[],"official_maps":[],"outerspatial_url":null,"related_features":[],"related_urls":[],"short_name":null,"steward_url":null,"subarea_id":null,"tags":[],"type":"Trailhead"},{"content":null,"events":[],"geometry":{"type":"Point","coordinates":[-121.390393,44.043952]},"id":191,"live":[],"media":[],"name":"Phil's T.h.","news_and_alerts":[],"official_maps":[],"outerspatial_url":null,"related_features":[],"related_urls":[],"short_name":null,"steward_url":null,"subarea_id":null,"tags":[],"type":"Trailhead"},{"content":null,"events":[],"geometry":{"type":"Point","coordinates":[-121.410765,43.978031]},"id":193,"live":[],"media":[],"name":"Big Eddy","news_and_alerts":[],"official_maps":[],"outerspatial_url":null,"related_features":[],"related_urls":[],"short_name":null,"steward_url":null,"subarea_id":null,"tags":[],"type":"Trailhead"},{"content":null,"events":[],"geometry":{"type":"Point","coordinates":[-121.696825,44.016308]},"id":195,"live":[],"media":[],"name":"Todd Creek","news_and_alerts":[],"official_maps":[],"outerspatial_url":null,"related_features":[],"related_urls":[],"short_name":null,"steward_url":null,"subarea_id":null,"tags":[],"type":"Horse Camp"},{"content":null,"events":[],"geometry":{"type":"Point","coordinates":[-121.764688,44.035097]},"id":198,"live":[],"media":[],"name":"Devils Lake","news_and_alerts":[],"official_maps":[],"outerspatial_url":null,"related_features":[],"related_urls":[],"short_name":null,"steward_url":null,"subarea_id":null,"tags":[],"type":"Campground"},{"content":null,"events":[],"geometry":{"type":"Point","coordinates":[-121.686358,44.026934]},"id":200,"live":[],"media":[],"name":"Todd Lake Picnic Area","news_and_alerts":[],"official_maps":[],"outerspatial_url":null,"related_features":[],"related_urls":[],"short_name":null,"steward_url":null,"subarea_id":null,"tags":[],"type":"Picnic Area"},{"content":null,"events":[],"geometry":{"type":"Point","coordinates":[-121.379956,44.000683]},"id":204,"live":[],"media":[],"name":"Meadow","news_and_alerts":[],"official_maps":[],"outerspatial_url":null,"related_features":[],"related_urls":[],"short_name":null,"steward_url":null,"subarea_id":null,"tags":[],"type":"Picnic Area"},{"content":null,"events":[],"geometry":{"type":"Point","coordinates":[-121.568097,43.989318]},"id":206,"live":[],"media":[],"name":"Swampy Lakes Snow-park","news_and_alerts":[],"official_maps":[],"outerspatial_url":null,"related_features":[],"related_urls":[],"short_name":null,"steward_url":null,"subarea_id":null,"tags":[],"type":"Snowpark"},{"content":null,"events":[],"geometry":{"type":"Point","coordinates":[-121.544002,43.984007]},"id":208,"live":[],"media":[],"name":"Wanoga Snowpark","news_and_alerts":[],"official_maps":[],"outerspatial_url":null,"related_features":[],"related_urls":[],"short_name":null,"steward_url":null,"subarea_id":null,"tags":[],"type":"Snowpark"},{"content":null,"events":[],"geometry":{"type":"Point","coordinates":[-121.807491,43.979475]},"id":212,"live":[],"media":[],"name":"Elk Lake","news_and_alerts":[],"official_maps":[],"outerspatial_url":null,"related_features":[],"related_urls":[],"short_name":null,"steward_url":null,"subarea_id":null,"tags":[],"type":"Campground"},{"content":null,"events":[],"geometry":{"type":"Point","coordinates":[-121.793599,43.976772]},"id":215,"live":[],"media":[],"name":"Sunset View","news_and_alerts":[],"official_maps":[],"outerspatial_url":null,"related_features":[],"related_urls":[],"short_name":null,"steward_url":null,"subarea_id":null,"tags":[],"type":"Picnic Area"},{"content":null,"events":[],"geometry":{"type":"Point","coordinates":[-121.782941,43.963419]},"id":217,"live":[],"media":[],"name":"Mallard Marsh (hosmer Lake)","news_and_alerts":[],"official_maps":[],"outerspatial_url":null,"related_features":[],"related_urls":[],"short_name":null,"steward_url":null,"subarea_id":null,"tags":[],"type":"Campground"},{"content":null,"events":[],"geometry":{"type":"Point","coordinates":[-121.41575,43.957847]},"id":219,"live":[],"media":[],"name":"Dillon Falls","news_and_alerts":[],"official_maps":[],"outerspatial_url":null,"related_features":[],"related_urls":[],"short_name":null,"steward_url":null,"subarea_id":null,"tags":[],"type":"Picnic Area"},{"content":null,"events":[],"geometry":{"type":"Point","coordinates":[-121.78767,43.960363]},"id":221,"live":[],"media":[],"name":"South (hosmer Lake)","news_and_alerts":[],"official_maps":[],"outerspatial_url":null,"related_features":[],"related_urls":[],"short_name":null,"steward_url":null,"subarea_id":null,"tags":[],"type":"Campground"},{"content":null,"events":[],"geometry":{"type":"Point","coordinates":[-121.413529,43.931144]},"id":223,"live":[],"media":[],"name":"Benham East","news_and_alerts":[],"official_maps":[],"outerspatial_url":null,"related_features":[],"related_urls":[],"short_name":null,"steward_url":null,"subarea_id":null,"tags":[],"type":"Picnic Area"},{"content":null,"events":[],"geometry":{"type":"Point","coordinates":[-121.765886,43.913401]},"id":228,"live":[],"media":[],"name":"Lava Lake","news_and_alerts":[],"official_maps":[],"outerspatial_url":null,"related_features":[],"related_urls":[],"short_name":null,"steward_url":null,"subarea_id":null,"tags":[],"type":"Campground"},{"content":null,"events":[],"geometry":{"type":"Point","coordinates":[-121.768376,43.88386]},"id":230,"live":[],"media":[],"name":"Mile Camp Day Use","news_and_alerts":[],"official_maps":[],"outerspatial_url":null,"related_features":[],"related_urls":[],"short_name":null,"steward_url":null,"subarea_id":null,"tags":[],"type":"Picnic Area"},{"content":null,"events":[],"geometry":{"type":"Point","coordinates":[-121.867864,43.846135]},"id":232,"live":[],"media":[],"name":"Cultus Coves Camping","news_and_alerts":[],"official_maps":[],"outerspatial_url":null,"related_features":[],"related_urls":[],"short_name":null,"steward_url":null,"subarea_id":null,"tags":[],"type":"Campground"},{"content":null,"events":[],"geometry":{"type":"Point","coordinates":[-121.833407,43.835159]},"id":234,"live":[],"media":[],"name":"Cultus Lake","news_and_alerts":[],"official_maps":[],"outerspatial_url":null,"related_features":[],"related_urls":[],"short_name":null,"steward_url":null,"subarea_id":null,"tags":[],"type":"Campground"},{"content":null,"events":[],"geometry":{"type":"Point","coordinates":[-121.800837,43.824026]},"id":236,"live":[],"media":[],"name":"Cultus Corral","news_and_alerts":[],"official_maps":[],"outerspatial_url":null,"related_features":[],"related_urls":[],"short_name":null,"steward_url":null,"subarea_id":null,"tags":[],"type":"Horse Camp"},{"content":null,"events":[],"geometry":{"type":"Point","coordinates":[-121.775581,43.81239]},"id":238,"live":[],"media":[],"name":"Cow Meadow","news_and_alerts":[],"official_maps":[],"outerspatial_url":null,"related_features":[],"related_urls":[],"short_name":null,"steward_url":null,"subarea_id":null,"tags":[],"type":"Campground"},{"content":null,"events":[],"geometry":{"type":"Point","coordinates":[-121.871845,43.799666]},"id":240,"live":[],"media":[],"name":"Little Cultus","news_and_alerts":[],"official_maps":[],"outerspatial_url":null,"related_features":[],"related_urls":[],"short_name":null,"steward_url":null,"subarea_id":null,"tags":[],"type":"Campground"},{"content":null,"events":[],"geometry":{"type":"Point","coordinates":[-121.762188,43.796395]},"id":242,"live":[],"media":[],"name":"Crane Prairie","news_and_alerts":[],"official_maps":[],"outerspatial_url":null,"related_features":[],"related_urls":[],"short_name":null,"steward_url":null,"subarea_id":null,"tags":[],"type":"Campground"},{"content":null,"events":[],"geometry":{"type":"Point","coordinates":[-121.617328,43.775168]},"id":245,"live":[],"media":[],"name":"Fall River","news_and_alerts":[],"official_maps":[],"outerspatial_url":null,"related_features":[],"related_urls":[],"short_name":null,"steward_url":null,"subarea_id":null,"tags":[],"type":"Campground"},{"content":null,"events":[],"geometry":{"type":"Point","coordinates":[-121.605861,43.746685]},"id":247,"live":[],"media":[],"name":"Pringle Falls","news_and_alerts":[],"official_maps":[],"outerspatial_url":null,"related_features":[],"related_urls":[],"short_name":null,"steward_url":null,"subarea_id":null,"tags":[],"type":"Campground"},{"content":null,"events":[],"geometry":{"type":"Point","coordinates":[-121.613556,43.738775]},"id":249,"live":[],"media":[],"name":"Wyeth","news_and_alerts":[],"official_maps":[],"outerspatial_url":null,"related_features":[],"related_urls":[],"short_name":null,"steward_url":null,"subarea_id":null,"tags":[],"type":"Campground"},{"content":null,"events":[],"geometry":{"type":"Point","coordinates":[-121.419325,43.729355]},"id":252,"live":[],"media":[],"name":"P.s.o. Trailhead","news_and_alerts":[],"official_maps":[],"outerspatial_url":null,"related_features":[],"related_urls":[],"short_name":null,"steward_url":null,"subarea_id":null,"tags":[],"type":"Trailhead"},{"content":null,"events":[],"geometry":{"type":"Point","coordinates":[-121.76374,43.731346]},"id":255,"live":[],"media":[],"name":"North Twin Lake","news_and_alerts":[],"official_maps":[],"outerspatial_url":null,"related_features":[],"related_urls":[],"short_name":null,"steward_url":null,"subarea_id":null,"tags":[],"type":"Campground"},{"content":null,"events":[],"geometry":{"type":"Point","coordinates":[-121.628292,43.72551]},"id":257,"live":[],"media":[],"name":"Bull Bend","news_and_alerts":[],"official_maps":[],"outerspatial_url":null,"related_features":[],"related_urls":[],"short_name":null,"steward_url":null,"subarea_id":null,"tags":[],"type":"Campground"},{"content":null,"events":[],"geometry":{"type":"Point","coordinates":[-121.212569,43.71764]},"id":259,"live":[],"media":[],"name":"East Lake","news_and_alerts":[],"official_maps":[],"outerspatial_url":null,"related_features":[],"related_urls":[],"short_name":null,"steward_url":null,"subarea_id":null,"tags":[],"type":"Campground"},{"content":null,"events":[],"geometry":{"type":"Point","coordinates":[-121.377312,43.716908]},"id":262,"live":[],"media":[],"name":"Mckay Crossing","news_and_alerts":[],"official_maps":[],"outerspatial_url":null,"related_features":[],"related_urls":[],"short_name":null,"steward_url":null,"subarea_id":null,"tags":[],"type":"Campground"},{"content":null,"events":[],"geometry":{"type":"Point","coordinates":[-121.273843,43.711884]},"id":264,"live":[],"media":[],"name":"Paulina Lake","news_and_alerts":[],"official_maps":[],"outerspatial_url":null,"related_features":[],"related_urls":[],"short_name":null,"steward_url":null,"subarea_id":null,"tags":[],"type":"Campground"},{"content":null,"events":[],"geometry":{"type":"Point","coordinates":[-121.772907,43.71608]},"id":267,"live":[],"media":[],"name":"West South Twin","news_and_alerts":[],"official_maps":[],"outerspatial_url":null,"related_features":[],"related_urls":[],"short_name":null,"steward_url":null,"subarea_id":null,"tags":[],"type":"Campground"},{"content":[{"html":"<p>This sno-park offers access to both motorized and non-motorized winter recreation activities in and around Newberry Caldera. The lot generallly fills up on weekends during the winter. It can also be used as a base for summer hiking/biking ventures.</p>","type":"lead"},{"alt_text":null,"title":null,"type":"png","url":null},{"html":"<h2>At a Glance</h2><p><ul><li>Permit Info: Sno-Park Permit required November 1 - April 30</li><li>Open Season: December - April</li><li>Restrictions: ATV's are prohibited in Newberry National Volcanic Monument.</li><li>Water: No</li><li>Restroom: Vault Toilet</li></ul></p><h2>Directions</h2><p>From Bend, travel south on Hwy 97 approx. 24 miles, then 10 miles east on County Road 21.</p>","type":"body"}],"events":[],"geometry":{"type":"Point","coordinates":[-121.326699,43.707183]},"id":272,"live":[],"media":[],"name":"10 Mile Snow Park","news_and_alerts":[],"official_maps":[],"outerspatial_url":null,"related_features":[],"related_urls":[],"short_name":null,"steward_url":null,"subarea_id":null,"tags":[],"type":"Snowpark"},{"content":null,"events":[],"geometry":{"type":"Point","coordinates":[-121.254211,43.702235]},"id":275,"live":[],"media":[],"name":"Chief Paulina","news_and_alerts":[],"official_maps":[],"outerspatial_url":null,"related_features":[],"related_urls":[],"short_name":null,"steward_url":null,"subarea_id":null,"tags":[],"type":"Horse Camp"},{"content":null,"events":[],"geometry":{"type":"Point","coordinates":[-121.68522,43.67289]},"id":279,"live":[],"media":[],"name":"Wickiup Butte","news_and_alerts":[],"official_maps":[],"outerspatial_url":null,"related_features":[],"related_urls":[],"short_name":null,"steward_url":null,"subarea_id":null,"tags":[],"type":"Campground"},{"content":null,"events":[],"geometry":{"type":"Point","coordinates":[-121.770845,43.671215]},"id":281,"live":[],"media":[],"name":"Reservoir","news_and_alerts":[],"official_maps":[],"outerspatial_url":null,"related_features":[],"related_urls":[],"short_name":null,"steward_url":null,"subarea_id":null,"tags":[],"type":"Campground"},{"content":null,"events":[],"geometry":{"type":"Point","coordinates":[-121.058458,43.495981]},"id":284,"live":[],"media":[],"name":"Cabin Lake","news_and_alerts":[],"official_maps":[],"outerspatial_url":null,"related_features":[],"related_urls":[],"short_name":null,"steward_url":null,"subarea_id":null,"tags":[],"type":"Campground"},{"content":null,"events":[],"geometry":{"type":"Point","coordinates":[-120.448025,44.546775]},"id":286,"live":[],"media":[],"name":"North Scotty Creek","news_and_alerts":[],"official_maps":[],"outerspatial_url":null,"related_features":[],"related_urls":[],"short_name":null,"steward_url":null,"subarea_id":null,"tags":[],"type":"Trailhead"},{"content":null,"events":[],"geometry":{"type":"Point","coordinates":[-121.0901,44.428882]},"id":288,"live":[],"media":[],"name":"Gray Butte","news_and_alerts":[],"official_maps":[],"outerspatial_url":null,"related_features":[],"related_urls":[],"short_name":null,"steward_url":null,"subarea_id":null,"tags":[],"type":"Trailhead"},{"content":null,"events":[],"geometry":{"type":"Point","coordinates":[-121.281184,44.535382]},"id":290,"live":[],"media":[],"name":"Tam-a-lau","news_and_alerts":[],"official_maps":[],"outerspatial_url":null,"related_features":[],"related_urls":[],"short_name":null,"steward_url":null,"subarea_id":null,"tags":[],"type":"Trailhead"},{"content":null,"events":[],"geometry":{"type":"Point","coordinates":[-120.616446,44.502139]},"id":292,"live":[],"media":[],"name":"South Potlid","news_and_alerts":[],"official_maps":[],"outerspatial_url":null,"related_features":[],"related_urls":[],"short_name":null,"steward_url":null,"subarea_id":null,"tags":[],"type":"Trailhead"},{"content":null,"events":[],"geometry":{"type":"Point","coordinates":[-120.385871,44.28956]},"id":294,"live":[],"media":[],"name":"Line Butte Trailhead","news_and_alerts":[],"official_maps":[],"outerspatial_url":null,"related_features":[],"related_urls":[],"short_name":null,"steward_url":null,"subarea_id":null,"tags":[],"type":"Trailhead"},{"content":null,"events":[],"geometry":{"type":"Point","coordinates":[-120.357954,44.340716]},"id":296,"live":[],"media":[],"name":"Round Mtn/lookout Mtn/independent Mi","news_and_alerts":[],"official_maps":[],"outerspatial_url":null,"related_features":[],"related_urls":[],"short_name":null,"steward_url":null,"subarea_id":null,"tags":[],"type":"Trailhead"},{"content":null,"events":[],"geometry":{"type":"Point","coordinates":[-120.028407,44.442805]},"id":298,"live":[],"media":[],"name":"Fawn Crk (removed)","news_and_alerts":[],"official_maps":[],"outerspatial_url":null,"related_features":[],"related_urls":[],"short_name":null,"steward_url":null,"subarea_id":null,"tags":[],"type":"Trailhead"},{"content":null,"events":[],"geometry":{"type":"Point","coordinates":[-119.936735,44.473214]},"id":300,"live":[],"media":[],"name":"Fawn Crk (removed)","news_and_alerts":[],"official_maps":[],"outerspatial_url":null,"related_features":[],"related_urls":[],"short_name":null,"steward_url":null,"subarea_id":null,"tags":[],"type":"Trailhead"},{"content":null,"events":[],"geometry":{"type":"Point","coordinates":[-119.682028,44.356986]},"id":302,"live":[],"media":[],"name":"Barnhouse","news_and_alerts":[],"official_maps":[],"outerspatial_url":null,"related_features":[],"related_urls":[],"short_name":null,"steward_url":null,"subarea_id":null,"tags":[],"type":"Campground"},{"content":null,"events":[],"geometry":{"type":"Point","coordinates":[-119.662316,44.306208]},"id":304,"live":[],"media":[],"name":"Barnhouse","news_and_alerts":[],"official_maps":[],"outerspatial_url":null,"related_features":[],"related_urls":[],"short_name":null,"steward_url":null,"subarea_id":null,"tags":[],"type":"Campground"},{"content":null,"events":[],"geometry":{"type":"Point","coordinates":[-119.710298,44.327213]},"id":306,"live":[],"media":[],"name":"Barnhouse","news_and_alerts":[],"official_maps":[],"outerspatial_url":null,"related_features":[],"related_urls":[],"short_name":null,"steward_url":null,"subarea_id":null,"tags":[],"type":"Campground"},{"content":null,"events":[],"geometry":{"type":"Point","coordinates":[-119.621254,44.344139]},"id":308,"live":[],"media":[],"name":"Barnhouse","news_and_alerts":[],"official_maps":[],"outerspatial_url":null,"related_features":[],"related_urls":[],"short_name":null,"steward_url":null,"subarea_id":null,"tags":[],"type":"Campground"},{"content":null,"events":[],"geometry":{"type":"Point","coordinates":[-119.782332,44.355411]},"id":310,"live":[],"media":[],"name":"Barnhouse","news_and_alerts":[],"official_maps":[],"outerspatial_url":null,"related_features":[],"related_urls":[],"short_name":null,"steward_url":null,"subarea_id":null,"tags":[],"type":"Campground"},{"content":null,"events":[],"geometry":{"type":"Point","coordinates":[-119.774295,44.377344]},"id":312,"live":[],"media":[],"name":"Barnhouse","news_and_alerts":[],"official_maps":[],"outerspatial_url":null,"related_features":[],"related_urls":[],"short_name":null,"steward_url":null,"subarea_id":null,"tags":[],"type":"Campground"},{"content":null,"events":[],"geometry":{"type":"Point","coordinates":[-119.641174,44.408879]},"id":314,"live":[],"media":[],"name":"Barnhouse","news_and_alerts":[],"official_maps":[],"outerspatial_url":null,"related_features":[],"related_urls":[],"short_name":null,"steward_url":null,"subarea_id":null,"tags":[],"type":"Campground"},{"content":null,"events":[],"geometry":{"type":"Point","coordinates":[-121.443315,44.58565]},"id":316,"live":[],"media":[],"name":"Perry South","news_and_alerts":[],"official_maps":[],"outerspatial_url":null,"related_features":[],"related_urls":[],"short_name":null,"steward_url":null,"subarea_id":null,"tags":[],"type":"Campground"},{"content":null,"events":[],"geometry":{"type":"Point","coordinates":[-121.619385,44.571793]},"id":318,"live":[],"media":[],"name":"Candle Creek","news_and_alerts":[],"official_maps":[],"outerspatial_url":null,"related_features":[],"related_urls":[],"short_name":null,"steward_url":null,"subarea_id":null,"tags":[],"type":"Campground"},{"content":null,"events":[],"geometry":{"type":"Point","coordinates":[-121.620375,44.557612]},"id":320,"live":[],"media":[],"name":"Lower Bridge","news_and_alerts":[],"official_maps":[],"outerspatial_url":null,"related_features":[],"related_urls":[],"short_name":null,"steward_url":null,"subarea_id":null,"tags":[],"type":"Campground"},{"content":null,"events":[],"geometry":{"type":"Point","coordinates":[-121.750969,44.555552]},"id":322,"live":[],"media":[],"name":"Brush Creek T.h.","news_and_alerts":[],"official_maps":[],"outerspatial_url":null,"related_features":[],"related_urls":[],"short_name":null,"steward_url":null,"subarea_id":null,"tags":[],"type":"Trailhead"},{"content":null,"events":[],"geometry":{"type":"Point","coordinates":[-121.67489,44.54665]},"id":324,"live":[],"media":[],"name":"Abbot Creek","news_and_alerts":[],"official_maps":[],"outerspatial_url":null,"related_features":[],"related_urls":[],"short_name":null,"steward_url":null,"subarea_id":null,"tags":[],"type":"Campground"},{"content":null,"events":[],"geometry":{"type":"Point","coordinates":[-121.699629,44.522875]},"id":326,"live":[],"media":[],"name":"Sheep Springs Horse Camp","news_and_alerts":[],"official_maps":[],"outerspatial_url":null,"related_features":[],"related_urls":[],"short_name":null,"steward_url":null,"subarea_id":null,"tags":[],"type":"Horse Camp"},{"content":null,"events":[],"geometry":{"type":"Point","coordinates":[-121.646171,44.501857]},"id":330,"live":[],"media":[],"name":"Lower Canyon Creek","news_and_alerts":[],"official_maps":[],"outerspatial_url":null,"related_features":[],"related_urls":[],"short_name":null,"steward_url":null,"subarea_id":null,"tags":[],"type":"Campground"},{"content":null,"events":[],"geometry":{"type":"Point","coordinates":[-121.79457,44.49199]},"id":332,"live":[],"media":[],"name":"Squaw Creek Falls T.h.","news_and_alerts":[],"official_maps":[],"outerspatial_url":null,"related_features":[],"related_urls":[],"short_name":null,"steward_url":null,"subarea_id":null,"tags":[],"type":"Trailhead"},{"content":null,"events":[],"geometry":{"type":"Point","coordinates":[-121.638816,44.485254]},"id":334,"live":[],"media":[],"name":"Gorge","news_and_alerts":[],"official_maps":[],"outerspatial_url":null,"related_features":[],"related_urls":[],"short_name":null,"steward_url":null,"subarea_id":null,"tags":[],"type":"Campground"},{"content":null,"events":[],"geometry":{"type":"Point","coordinates":[-121.638201,44.481758]},"id":336,"live":[],"media":[],"name":"Pine Rest","news_and_alerts":[],"official_maps":[],"outerspatial_url":null,"related_features":[],"related_urls":[],"short_name":null,"steward_url":null,"subarea_id":null,"tags":[],"type":"Campground"},{"content":null,"events":[],"geometry":{"type":"Point","coordinates":[-121.637111,44.474264]},"id":339,"live":[],"media":[],"name":"Smiling River","news_and_alerts":[],"official_maps":[],"outerspatial_url":null,"related_features":[],"related_urls":[],"short_name":null,"steward_url":null,"subarea_id":null,"tags":[],"type":"Campground"},{"content":null,"events":[],"geometry":{"type":"Point","coordinates":[-121.639282,44.463491]},"id":341,"live":[],"media":[],"name":"Camp Sherman","news_and_alerts":[],"official_maps":[],"outerspatial_url":null,"related_features":[],"related_urls":[],"short_name":null,"steward_url":null,"subarea_id":null,"tags":[],"type":"Campground"},{"content":null,"events":[],"geometry":{"type":"Point","coordinates":[-121.63448,44.442668]},"id":350,"live":[],"media":[],"name":"Riverside","news_and_alerts":[],"official_maps":[],"outerspatial_url":null,"related_features":[],"related_urls":[],"short_name":null,"steward_url":null,"subarea_id":null,"tags":[],"type":"Campground"},{"content":null,"events":[],"geometry":{"type":"Point","coordinates":[-121.782825,44.442426]},"id":352,"live":[],"media":[],"name":"Round Lake","news_and_alerts":[],"official_maps":[],"outerspatial_url":null,"related_features":[],"related_urls":[],"short_name":null,"steward_url":null,"subarea_id":null,"tags":[],"type":"Campground"},{"content":null,"events":[],"geometry":{"type":"Point","coordinates":[-121.732077,44.420775]},"id":359,"live":[],"media":[],"name":"Blue Bay","news_and_alerts":[],"official_maps":[],"outerspatial_url":null,"related_features":[],"related_urls":[],"short_name":null,"steward_url":null,"subarea_id":null,"tags":[],"type":"Campground"},{"content":null,"events":[],"geometry":{"type":"Point","coordinates":[-121.74105,44.418232]},"id":361,"live":[],"media":[],"name":"South Shore","news_and_alerts":[],"official_maps":[],"outerspatial_url":null,"related_features":[],"related_urls":[],"short_name":null,"steward_url":null,"subarea_id":null,"tags":[],"type":"Campground"},{"content":null,"events":[],"geometry":{"type":"Point","coordinates":[-121.807826,44.371874]},"id":365,"live":[],"media":[],"name":"Hortense Lake T.h.","news_and_alerts":[],"official_maps":[],"outerspatial_url":null,"related_features":[],"related_urls":[],"short_name":null,"steward_url":null,"subarea_id":null,"tags":[],"type":"Trailhead"},{"content":null,"events":[],"geometry":{"type":"Point","coordinates":[-121.643521,44.344802]},"id":367,"live":[],"media":[],"name":"Graham Corral","news_and_alerts":[],"official_maps":[],"outerspatial_url":null,"related_features":[],"related_urls":[],"short_name":null,"steward_url":null,"subarea_id":null,"tags":[],"type":"Horse Camp"},{"content":null,"events":[],"geometry":{"type":"Point","coordinates":[-121.629429,44.310575]},"id":369,"live":[],"media":[],"name":"Cold Spring","news_and_alerts":[],"official_maps":[],"outerspatial_url":null,"related_features":[],"related_urls":[],"short_name":null,"steward_url":null,"subarea_id":null,"tags":[],"type":"Campground"},{"content":null,"events":[],"geometry":{"type":"Point","coordinates":[-121.766048,44.284833]},"id":371,"live":[],"media":[],"name":"Black Crater T.h.","news_and_alerts":[],"official_maps":[],"outerspatial_url":null,"related_features":[],"related_urls":[],"short_name":null,"steward_url":null,"subarea_id":null,"tags":[],"type":"Trailhead"},{"content":null,"events":[],"geometry":{"type":"Point","coordinates":[-121.787189,44.259874]},"id":373,"live":[],"media":[],"name":"Lava Camp T.h.","news_and_alerts":[],"official_maps":[],"outerspatial_url":null,"related_features":[],"related_urls":[],"short_name":null,"steward_url":null,"subarea_id":null,"tags":[],"type":"Trailhead"},{"content":null,"events":[],"geometry":{"type":"Point","coordinates":[-121.716593,44.241968]},"id":375,"live":[],"media":[],"name":"Millican Crater T.h.","news_and_alerts":[],"official_maps":[],"outerspatial_url":null,"related_features":[],"related_urls":[],"short_name":null,"steward_url":null,"subarea_id":null,"tags":[],"type":"Trailhead"},{"content":null,"events":[],"geometry":{"type":"Point","coordinates":[-121.700204,44.187668]},"id":378,"live":[],"media":[],"name":"Pole Creek T.h.","news_and_alerts":[],"official_maps":[],"outerspatial_url":null,"related_features":[],"related_urls":[],"short_name":null,"steward_url":null,"subarea_id":null,"tags":[],"type":"Trailhead"},{"content":null,"events":[],"geometry":{"type":"Point","coordinates":[-121.636482,44.160558]},"id":380,"live":[],"media":[],"name":"Upper Three Creek Sno-park","news_and_alerts":[],"official_maps":[],"outerspatial_url":null,"related_features":[],"related_urls":[],"short_name":null,"steward_url":null,"subarea_id":null,"tags":[],"type":"Snowpark"},{"content":null,"events":[],"geometry":{"type":"Point","coordinates":[-121.628816,44.117656]},"id":382,"live":[],"media":[],"name":"Park Meadow T.h.","news_and_alerts":[],"official_maps":[],"outerspatial_url":null,"related_features":[],"related_urls":[],"short_name":null,"steward_url":null,"subarea_id":null,"tags":[],"type":"Trailhead"},{"content":null,"events":[],"geometry":{"type":"Point","coordinates":[-121.627281,44.102399]},"id":385,"live":[],"media":[],"name":"Driftwood","news_and_alerts":[],"official_maps":[],"outerspatial_url":null,"related_features":[],"related_urls":[],"short_name":null,"steward_url":null,"subarea_id":null,"tags":[],"type":"Campground"},{"content":null,"events":[],"geometry":{"type":"Point","coordinates":[-121.623308,44.100681]},"id":387,"live":[],"media":[],"name":"Tam Mcarthur Rim T.h.","news_and_alerts":[],"official_maps":[],"outerspatial_url":null,"related_features":[],"related_urls":[],"short_name":null,"steward_url":null,"subarea_id":null,"tags":[],"type":"Trailhead"},{"content":null,"events":[],"geometry":{"type":"Point","coordinates":[-121.623917,44.095241]},"id":389,"live":[],"media":[],"name":"Three Creek Lake","news_and_alerts":[],"official_maps":[],"outerspatial_url":null,"related_features":[],"related_urls":[],"short_name":null,"steward_url":null,"subarea_id":null,"tags":[],"type":"Campground"}]